[
  {
    "id": "cs-001",
    "name": "Tesla Supercharger - Lujiazui Center",
    "network": "Tesla Supercharger",
    "address": "Century Avenue 1568, Pudong, Shanghai",
    "location": { "lat": 31.2353, "lng": 121.5055 },
    "distance_km": 3.2,
    "totalPorts": 12,
    "availablePorts": 5,
    "maxPower_kW": 250,
    "estimatedWait_min": 0,
    "estimatedChargeTime_min": 35,
    "pricePerKWh": 1.8,
    "rating": 4.7,
    "operatingHours": "24h"
  },
  {
    "id": "cs-002",
    "name": "NIO Power Swap - People's Square",
    "network": "NIO Power",
    "address": "Xizang Middle Road 268, Huangpu, Shanghai",
    "location": { "lat": 31.2320, "lng": 121.4735 },
    "distance_km": 0.8,
    "totalPorts": 6,
    "availablePorts": 2,
    "maxPower_kW": 180,
    "estimatedWait_min": 10,
    "estimatedChargeTime_min": 45,
    "pricePerKWh": 1.6,
    "rating": 4.5,
    "operatingHours": "06:00-23:00"
  },
  {
    "id": "cs-003",
    "name": "State Grid Fast Charge - Jing'an",
    "network": "State Grid",
    "address": "Nanjing West Road 1038, Jing'an, Shanghai",
    "location": { "lat": 31.2290, "lng": 121.4510 },
    "distance_km": 2.1,
    "totalPorts": 8,
    "availablePorts": 0,
    "maxPower_kW": 120,
    "estimatedWait_min": 25,
    "estimatedChargeTime_min": 55,
    "pricePerKWh": 1.2,
    "rating": 4.0,
    "operatingHours": "24h"
  },
  {
    "id": "cs-004",
    "name": "XPeng Supercharger - Hongqiao",
    "network": "XPeng",
    "address": "Yan'an West Road 2299, Changning, Shanghai",
    "location": { "lat": 31.2100, "lng": 121.3850 },
    "distance_km": 8.5,
    "totalPorts": 10,
    "availablePorts": 7,
    "maxPower_kW": 480,
    "estimatedWait_min": 0,
    "estimatedChargeTime_min": 20,
    "pricePerKWh": 2.0,
    "rating": 4.8,
    "operatingHours": "24h"
  },
  {
    "id": "cs-005",
    "name": "Tesla Supercharger - Xujiahui",
    "network": "Tesla Supercharger",
    "address": "Caoxi North Road 88, Xuhui, Shanghai",
    "location": { "lat": 31.1950, "lng": 121.4370 },
    "distance_km": 5.0,
    "totalPorts": 16,
    "availablePorts": 10,
    "maxPower_kW": 250,
    "estimatedWait_min": 0,
    "estimatedChargeTime_min": 35,
    "pricePerKWh": 1.8,
    "rating": 4.6,
    "operatingHours": "24h"
  }
]
